$GPRMC,154312.156,A,5419.798,N,01010.894,E,,,050216,,E*4E
$GPRMC,154313.761,A,5419.825,N,01010.858,E,0.3,,050216,,E*69
$GPRMC,154313.823,A,5419.825,N,01010.858,E,0.3,,050216,,E*60
$GPRMC,154314.749,A,5419.822,N,01010.857,E,0.3,,050216,,E*6C
$GPRMC,154314.798,A,5419.822,N,01010.857,E,0.3,,050216,,E*60
$GPRMC,154315.744,A,5419.820,N,01010.855,E,0.3,,050216,,E*60
$GPRMC,154315.777,A,5419.820,N,01010.855,E,0.3,,050216,,E*60
$GPRMC,154316.747,A,5419.819,N,01010.856,E,0.3,,050216,,E*69
$GPRMC,154316.801,A,5419.819,N,01010.856,E,0.3,,050216,,E*64
$GPRMC,154317.748,A,5419.817,N,01010.862,E,0.1,,050216,,E*6C
$GPRMC,154317.796,A,5419.817,N,01010.862,E,0.1,,050216,,E*6F
$GPRMC,154318.746,A,5419.823,N,01010.853,E,0.1,,050216,,E*68
$GPRMC,154318.793,A,5419.823,N,01010.853,E,0.1,,050216,,E*60
$GPRMC,154319.742,A,5419.822,N,01010.853,E,0.1,,050216,,E*6C
$GPRMC,154319.798,A,5419.822,N,01010.853,E,0.1,,050216,,E*6B
$GPRMC,154320.744,A,5419.819,N,01010.854,E,0.1,,050216,,E*6F
$GPRMC,154320.756,A,5419.819,N,01010.854,E,0.1,,050216,,E*6C
$GPRMC,154320.912,A,5419.819,N,01010.854,E,0.1,,050216,,E*62
$GPRMC,154321.752,A,5419.819,N,01010.854,E,0.3,,050216,,E*6B
$GPRMC,154321.808,A,5419.819,N,01010.854,E,0.3,,050216,,E*6B
$GPRMC,154322.755,A,5419.820,N,01010.852,E,0.4,,050216,,E*64
$GPRMC,154322.813,A,5419.820,N,01010.852,E,0.4,,050216,,E*69
$GPRMC,154323.752,A,5419.819,N,01010.852,E,0.4,,050216,,E*68
$GPRMC,154323.801,A,5419.819,N,01010.852,E,0.4,,050216,,E*61
$GPRMC,154324.756,A,5419.820,N,01010.851,E,0.5,,050216,,E*63
$GPRMC,154324.796,A,5419.820,N,01010.851,E,0.5,,050216,,E*6F
$GPRMC,154325.806,A,5419.820,N,01010.850,E,0.3,,050216,,E*6F
$GPRMC,154325.753,A,5419.820,N,01010.850,E,0.3,,050216,,E*60
$GPRMC,154326.795,A,5419.821,N,01010.850,E,0.3,,050216,,E*68
$GPRMC,154326.754,A,5419.821,N,01010.850,E,0.3,,050216,,E*65
$GPRMC,154327.75,A,5419.821,N,01010.851,E,0.2,,050216,,E*50
$GPRMC,154327.785,A,5419.821,N,01010.851,E,0.2,,050216,,E*68
$GPRMC,154328.748,A,5419.821,N,01010.850,E,0.9,,050216,,E*6C
$GPRMC,154328.78,A,5419.821,N,01010.850,E,0.9,,050216,,E*58
$GPRMC,154329.754,A,5419.819,N,01010.849,E,1.5,,050216,,E*6E
$GPRMC,154329.818,A,5419.819,N,01010.849,E,1.5,,050216,,E*69
$GPRMC,154330.752,A,5419.817,N,01010.849,E,1.9,,050216,,E*62
$GPRMC,154330.795,A,5419.817,N,01010.849,E,1.9,,050216,,E*69
$GPRMC,154331.757,A,5419.815,N,01010.849,E,1.8,,050216,,E*65
$GPRMC,154331.804,A,5419.815,N,01010.849,E,1.8,,050216,,E*6C
$GPRMC,154332.763,A,5419.814,N,01010.848,E,1.8,,050216,,E*61
$GPRMC,154332.796,A,5419.814,N,01010.848,E,1.8,,050216,,E*6B
$GPRMC,154333.753,A,5419.813,N,01010.846,E,1.8,,050216,,E*6A
$GPRMC,154333.802,A,5419.813,N,01010.846,E,1.8,,050216,,E*61
$GPRMC,154334.757,A,5419.811,N,01010.843,E,1.7,,050216,,E*61
$GPRMC,154334.797,A,5419.811,N,01010.843,E,1.7,,050216,,E*6D
$GPRMC,154335.799,A,5419.810,N,01010.841,E,1.6,,050216,,E*60
$GPRMC,154335.753,A,5419.810,N,01010.841,E,1.6,,050216,,E*66
$GPRMC,154336.811,A,5419.809,N,01010.840,E,1.4,,050216,,E*67
$GPRMC,154336.757,A,5419.809,N,01010.840,E,1.4,,050216,,E*6A
$GPRMC,154337.754,A,5419.808,N,01010.838,E,1.2,,050216,,E*60
$GPRMC,154337.802,A,5419.808,N,01010.838,E,1.2,,050216,,E*6C
$GPRMC,154338.76,A,5419.807,N,01010.837,E,1.2,,050216,,E*58
$GPRMC,154338.81,A,5419.807,N,01010.837,E,1.2,,050216,,E*50
$GPRMC,154339.758,A,5419.806,N,01010.836,E,1.3,,050216,,E*63
$GPRMC,154339.801,A,5419.806,N,01010.836,E,1.3,,050216,,E*60
$GPRMC,154340.756,A,5419.804,N,01010.835,E,1.4,,050216,,E*65
$GPRMC,154340.805,A,5419.804,N,01010.835,E,1.4,,050216,,E*6C
$GPRMC,154341.752,A,5419.803,N,01010.836,E,1.6,,050216,,E*66
$GPRMC,154341.798,A,5419.803,N,01010.836,E,1.6,,050216,,E*60
$GPRMC,154342.756,A,5419.802,N,01010.840,E,2.1,,050216,,E*65
$GPRMC,154342.815,A,5419.802,N,01010.840,E,2.1,,050216,,E*6D
$GPRMC,154343.757,A,5419.802,N,01010.844,E,2.4,,050216,,E*64
$GPRMC,154343.795,A,5419.802,N,01010.844,E,2.4,,050216,,E*6A
$GPRMC,154344.765,A,5419.803,N,01010.850,E,3.1,,050216,,E*62
$GPRMC,154344.803,A,5419.803,N,01010.850,E,3.1,,050216,,E*6D
$GPRMC,154345.755,A,5419.803,N,01010.856,E,3.1,,050216,,E*66
$GPRMC,154345.797,A,5419.803,N,01010.856,E,3.1,,050216,,E*68
$GPRMC,154346.762,A,5419.804,N,01010.863,E,4.3,,050216,,E*65
$GPRMC,154346.827,A,5419.804,N,01010.863,E,4.3,,050216,,E*6B
$GPRMC,154347.766,A,5419.805,N,01010.871,E,4.7,,050216,,E*66
$GPRMC,154347.811,A,5419.805,N,01010.871,E,4.7,,050216,,E*69
$GPRMC,154348.762,A,5419.805,N,01010.880,E,5.2,,050216,,E*67
$GPRMC,154348.803,A,5419.805,N,01010.880,E,5.2,,050216,,E*6F
$GPRMC,154349.815,A,5419.806,N,01010.888,E,4.7,,050216,,E*66
$GPRMC,154349.761,A,5419.806,N,01010.888,E,4.7,,050216,,E*6A
$GPRMC,154350.8,A,5419.805,N,01010.896,E,4.6,,050216,,E*67
$GPRMC,154350.758,A,5419.805,N,01010.896,E,4.6,,050216,,E*65
$GPRMC,154351.747,A,5419.804,N,01010.904,E,4.6,,050216,,E*61
$GPRMC,154351.792,A,5419.804,N,01010.904,E,4.6,,050216,,E*69
$GPRMC,154352.759,A,5419.803,N,01010.912,E,4.3,,050216,,E*68
$GPRMC,154352.791,A,5419.803,N,01010.912,E,4.3,,050216,,E*6C
$GPRMC,154353.773,A,5419.802,N,01010.919,E,4.7,,050216,,E*6F
$GPRMC,154353.814,A,5419.802,N,01010.919,E,4.7,,050216,,E*61
$GPRMC,154354.78,A,5419.799,N,01010.927,E,5.2,,050216,,E*50
$GPRMC,154354.849,A,5419.799,N,01010.927,E,5.2,,050216,,E*6A
$GPRMC,154355.768,A,5419.796,N,01010.934,E,5.5,,050216,,E*6D
$GPRMC,154355.828,A,5419.796,N,01010.934,E,5.5,,050216,,E*66
$GPRMC,154356.777,A,5419.791,N,01010.941,E,6.1,,050216,,E*62
$GPRMC,154356.815,A,5419.791,N,01010.941,E,6.1,,050216,,E*69
$GPRMC,154357.772,A,5419.786,N,01010.947,E,6.5,,050216,,E*62
$GPRMC,154357.827,A,5419.786,N,01010.947,E,6.5,,050216,,E*6D
$GPRMC,154358.815,A,5419.781,N,01010.954,E,6.7,,050216,,E*64
$GPRMC,154358.762,A,5419.781,N,01010.954,E,6.7,,050216,,E*6B
$GPRMC,154359.765,A,5419.775,N,01010.962,E,6.9,,050216,,E*6D
$GPRMC,154359.819,A,5419.775,N,01010.962,E,6.9,,050216,,E*69
$GPRMC,154400.773,A,5419.771,N,01010.970,E,7.0,,050216,,E*6E
$GPRMC,154400.829,A,5419.771,N,01010.970,E,7.0,,050216,,E*6E
$GPRMC,154401.762,A,5419.766,N,01010.979,E,7.0,,050216,,E*60
$GPRMC,154401.828,A,5419.766,N,01010.979,E,7.0,,050216,,E*61
$GPRMC,154402.767,A,5419.763,N,01010.990,E,7.1,,050216,,E*65
$GPRMC,154402.819,A,5419.763,N,01010.990,E,7.1,,050216,,E*63
$GPRMC,154403.764,A,5419.760,N,01011.001,E,7.1,,050216,,E*64
$GPRMC,154403.81,A,5419.760,N,01011.001,E,7.1,,050216,,E*58
$GPRMC,154404.818,A,5419.759,N,01011.013,E,7.0,,050216,,E*6F
$GPRMC,154404.765,A,5419.759,N,01011.013,E,7.0,,050216,,E*6A
$GPRMC,154405.779,A,5419.757,N,01011.025,E,6.8,,050216,,E*64
$GPRMC,154405.822,A,5419.757,N,01011.025,E,6.8,,050216,,E*65
$GPRMC,154406.77,A,5419.755,N,01011.037,E,6.9,,050216,,E*5E
$GPRMC,154406.826,A,5419.755,N,01011.037,E,6.9,,050216,,E*62
$GPRMC,154407.772,A,5419.754,N,01011.049,E,6.9,,050216,,E*65
$GPRMC,154407.823,A,5419.754,N,01011.049,E,6.9,,050216,,E*6E
$GPRMC,154408.758,A,5419.753,N,01011.061,E,7.0,,050216,,E*67
$GPRMC,154408.817,A,5419.753,N,01011.061,E,7.0,,050216,,E*63
$GPRMC,154409.767,A,5419.752,N,01011.072,E,7.0,,050216,,E*69
$GPRMC,154409.812,A,5419.752,N,01011.072,E,7.0,,050216,,E*64
$GPRMC,154410.776,A,5419.751,N,01011.084,E,7.3,,050216,,E*68
$GPRMC,154410.82,A,5419.751,N,01011.084,E,7.3,,050216,,E*54
$GPRMC,154411.77,A,5419.750,N,01011.097,E,7.4,,050216,,E*5B
$GPRMC,154411.82,A,5419.750,N,01011.097,E,7.4,,050216,,E*51
$GPRMC,154412.809,A,5419.749,N,01011.109,E,7.6,,050216,,E*65
$GPRMC,154412.765,A,5419.749,N,01011.109,E,7.6,,050216,,E*60
$GPRMC,154413.822,A,5419.748,N,01011.121,E,7.4,,050216,,E*64
$GPRMC,154413.771,A,5419.748,N,01011.121,E,7.4,,050216,,E*6D
$GPRMC,154414.818,A,5419.746,N,01011.134,E,7.5,,050216,,E*61
$GPRMC,154414.768,A,5419.746,N,01011.134,E,7.5,,050216,,E*69
$GPRMC,154415.758,A,5419.745,N,01011.147,E,7.5,,050216,,E*6C
$GPRMC,154415.809,A,5419.745,N,01011.147,E,7.5,,050216,,E*67
$GPRMC,154416.809,A,5419.744,N,01011.158,E,7.2,,050216,,E*6C
$GPRMC,154416.767,A,5419.744,N,01011.158,E,7.2,,050216,,E*6B
$GPRMC,154417.773,A,5419.744,N,01011.171,E,7.3,,050216,,E*65
$GPRMC,154417.821,A,5419.744,N,01011.171,E,7.3,,050216,,E*6D
$GPRMC,154418.816,A,5419.743,N,01011.183,E,7.0,,050216,,E*6F
$GPRMC,154418.769,A,5419.743,N,01011.183,E,7.0,,050216,,E*68
$GPRMC,154419.766,A,5419.742,N,01011.195,E,7.1,,050216,,E*61
$GPRMC,154419.822,A,5419.742,N,01011.195,E,7.1,,050216,,E*6E
$GPRMC,154420.764,A,5419.741,N,01011.207,E,7.1,,050216,,E*62
$GPRMC,154420.782,A,5419.741,N,01011.207,E,7.1,,050216,,E*6A
$GPRMC,154421.773,A,5419.740,N,01011.219,E,7.2,,050216,,E*68
$GPRMC,154421.836,A,5419.740,N,01011.219,E,7.2,,050216,,E*66
$GPRMC,154422.774,A,5419.740,N,01011.230,E,7.2,,050216,,E*67
$GPRMC,154422.822,A,5419.740,N,01011.230,E,7.2,,050216,,E*6B
$GPRMC,154423.768,A,5419.739,N,01011.242,E,7.2,,050216,,E*60
$GPRMC,154423.815,A,5419.739,N,01011.242,E,7.2,,050216,,E*65
$GPRMC,154424.782,A,5419.738,N,01011.253,E,6.9,,050216,,E*68
$GPRMC,154424.816,A,5419.738,N,01011.253,E,6.9,,050216,,E*6A
$GPRMC,154425.777,A,5419.738,N,01011.266,E,7.1,,050216,,E*6C
$GPRMC,154425.822,A,5419.738,N,01011.266,E,7.1,,050216,,E*63
$GPRMC,154426.767,A,5419.737,N,01011.278,E,7.3,,050216,,E*6C
$GPRMC,154426.821,A,5419.737,N,01011.278,E,7.3,,050216,,E*61
$GPRMC,154427.771,A,5419.735,N,01011.291,E,7.2,,050216,,E*6E
$GPRMC,154427.815,A,5419.735,N,01011.291,E,7.2,,050216,,E*63
$GPRMC,154428.768,A,5419.734,N,01011.303,E,7.2,,050216,,E*62
$GPRMC,154428.821,A,5419.734,N,01011.303,E,7.2,,050216,,E*60
$GPRMC,154429.811,A,5419.733,N,01011.316,E,7.1,,050216,,E*62
$GPRMC,154429.77,A,5419.733,N,01011.316,E,7.1,,050216,,E*5A
$GPRMC,154430.771,A,5419.731,N,01011.328,E,6.9,,050216,,E*65
$GPRMC,154430.818,A,5419.731,N,01011.328,E,6.9,,050216,,E*65
$GPRMC,154431.773,A,5419.731,N,01011.339,E,6.8,,050216,,E*67
$GPRMC,154431.813,A,5419.731,N,01011.339,E,6.8,,050216,,E*6E
$GPRMC,154432.772,A,5419.730,N,01011.351,E,6.8,,050216,,E*6A
$GPRMC,154432.812,A,5419.730,N,01011.351,E,6.8,,050216,,E*63
$GPRMC,154433.757,A,5419.728,N,01011.362,E,6.8,,050216,,E*65
$GPRMC,154433.806,A,5419.728,N,01011.362,E,6.8,,050216,,E*6E
$GPRMC,154434.768,A,5419.727,N,01011.374,E,6.7,,050216,,E*69
$GPRMC,154434.797,A,5419.727,N,01011.374,E,6.7,,050216,,E*69
$GPRMC,154435.772,A,5419.725,N,01011.385,E,6.8,,050216,,E*60
$GPRMC,154435.813,A,5419.725,N,01011.385,E,6.8,,050216,,E*68
$GPRMC,154436.816,A,5419.721,N,01011.394,E,6.0,,050216,,E*62
$GPRMC,154436.765,A,5419.721,N,01011.394,E,6.0,,050216,,E*69
$GPRMC,154437.757,A,5419.717,N,01011.401,E,5.9,,050216,,E*6D
$GPRMC,154437.809,A,5419.717,N,01011.401,E,5.9,,050216,,E*69
$GPRMC,154438.806,A,5419.713,N,01011.407,E,5.8,,050216,,E*6A
$GPRMC,154438.76,A,5419.713,N,01011.407,E,5.8,,050216,,E*55
$GPRMC,154439.806,A,5419.708,N,01011.411,E,5.3,,050216,,E*6D
$GPRMC,154439.751,A,5419.708,N,01011.411,E,5.3,,050216,,E*60
$GPRMC,154440.141,A,5419.708,N,01011.411,E,5.3,,050216,,E*69
$GPRMC,154440.804,A,5419.697,N,01011.410,E,6.3,,050216,,E*64
$GPRMC,154440.752,A,5419.697,N,01011.410,E,6.3,,050216,,E*68
$GPRMC,154441.754,A,5419.691,N,01011.407,E,5.8,,050216,,E*67
$GPRMC,154441.811,A,5419.691,N,01011.407,E,5.8,,050216,,E*69
$GPRMC,154442.757,A,5419.685,N,01011.401,E,6.4,,050216,,E*6B
$GPRMC,154442.811,A,5419.685,N,01011.401,E,6.4,,050216,,E*66
$GPRMC,154443.761,A,5419.678,N,01011.398,E,7.0,,050216,,E*6F
$GPRMC,154443.824,A,5419.678,N,01011.398,E,7.0,,050216,,E*61
$GPRMC,154444.758,A,5419.670,N,01011.395,E,7.6,,050216,,E*61
$GPRMC,154444.795,A,5419.670,N,01011.395,E,7.6,,050216,,E*60
$GPRMC,154445.814,A,5419.662,N,01011.391,E,7.9,,050216,,E*6F
$GPRMC,154445.759,A,5419.662,N,01011.391,E,7.9,,050216,,E*69
$GPRMC,154446.754,A,5419.654,N,01011.387,E,7.9,,050216,,E*65
$GPRMC,154446.809,A,5419.654,N,01011.387,E,7.9,,050216,,E*62
$GPRMC,154447.76,A,5419.646,N,01011.384,E,8.2,,050216,,E*57
$GPRMC,154447.807,A,5419.646,N,01011.384,E,8.2,,050216,,E*69
$GPRMC,154448.76,A,5419.638,N,01011.379,E,8.7,,050216,,E*56
$GPRMC,154448.794,A,5419.638,N,01011.379,E,8.7,,050216,,E*6D
$GPRMC,154449.754,A,5419.629,N,01011.376,E,9.0,,050216,,E*69
$GPRMC,154449.8,A,5419.629,N,01011.376,E,9.0,,050216,,E*67
$GPRMC,154450.754,A,5419.621,N,01011.372,E,8.9,,050216,,E*65
$GPRMC,154450.788,A,5419.621,N,01011.372,E,8.9,,050216,,E*64
$GPRMC,154451.763,A,5419.612,N,01011.367,E,9.0,,050216,,E*6C
$GPRMC,154451.805,A,5419.612,N,01011.367,E,9.0,,050216,,E*63
$GPRMC,154452.757,A,5419.603,N,01011.363,E,9.4,,050216,,E*68
$GPRMC,154452.814,A,5419.603,N,01011.363,E,9.4,,050216,,E*60
$GPRMC,154453.793,A,5419.594,N,01011.358,E,9.7,,050216,,E*67
$GPRMC,154453.761,A,5419.594,N,01011.358,E,9.7,,050216,,E*6A
$GPRMC,154454.764,A,5419.585,N,01011.353,E,9.6,,050216,,E*62
$GPRMC,154454.795,A,5419.585,N,01011.353,E,9.6,,050216,,E*6C
$GPRMC,154455.763,A,5419.575,N,01011.348,E,9.6,,050216,,E*61
$GPRMC,154455.792,A,5419.575,N,01011.348,E,9.6,,050216,,E*6F
$GPRMC,154456.763,A,5419.566,N,01011.345,E,9.5,,050216,,E*6E
$GPRMC,154456.808,A,5419.566,N,01011.345,E,9.5,,050216,,E*6C
$GPRMC,154457.821,A,5419.557,N,01011.341,E,9.2,,050216,,E*67
$GPRMC,154457.771,A,5419.557,N,01011.341,E,9.2,,050216,,E*6D
$GPRMC,154458.773,A,5419.549,N,01011.337,E,9.0,,050216,,E*6C
$GPRMC,154458.824,A,5419.549,N,01011.337,E,9.0,,050216,,E*61
$GPRMC,154459.781,A,5419.540,N,01011.332,E,8.8,,050216,,E*65
$GPRMC,154459.844,A,5419.540,N,01011.332,E,8.8,,050216,,E*63
$GPRMC,154500.833,A,5419.532,N,01011.328,E,8.8,,050216,,E*60
$GPRMC,154500.772,A,5419.532,N,01011.328,E,8.8,,050216,,E*6A
$GPRMC,154501.787,A,5419.523,N,01011.322,E,8.7,,050216,,E*64
$GPRMC,154501.803,A,5419.523,N,01011.322,E,8.7,,050216,,E*67
$GPRMC,154502.826,A,5419.516,N,01011.317,E,8.4,,050216,,E*60
$GPRMC,154502.772,A,5419.516,N,01011.317,E,8.4,,050216,,E*6E
$GPRMC,154503.833,A,5419.508,N,01011.311,E,8.8,,050216,,E*60
$GPRMC,154503.772,A,5419.508,N,01011.311,E,8.8,,050216,,E*6A
$GPRMC,154504.775,A,5419.500,N,01011.303,E,9.0,,050216,,E*68
$GPRMC,154504.81,A,5419.500,N,01011.303,E,9.0,,050216,,E*54
$GPRMC,154505.774,A,5419.492,N,01011.295,E,9.2,,050216,,E*6E
$GPRMC,154505.823,A,5419.492,N,01011.295,E,9.2,,050216,,E*63
$GPRMC,154506.776,A,5419.484,N,01011.288,E,9.2,,050216,,E*64
$GPRMC,154506.808,A,5419.484,N,01011.288,E,9.2,,050216,,E*62
$GPRMC,154507.761,A,5419.476,N,01011.279,E,9.3,,050216,,E*61
$GPRMC,154507.824,A,5419.476,N,01011.279,E,9.3,,050216,,E*6F
$GPRMC,154508.782,A,5419.469,N,01011.270,E,9.2,,050216,,E*65
$GPRMC,154508.822,A,5419.469,N,01011.270,E,9.2,,050216,,E*60
$GPRMC,154509.775,A,5419.461,N,01011.261,E,9.4,,050216,,E*62
$GPRMC,154509.818,A,5419.461,N,01011.261,E,9.4,,050216,,E*66
$GPRMC,154510.755,A,5419.453,N,01011.252,E,9.4,,050216,,E*69
$GPRMC,154510.794,A,5419.453,N,01011.252,E,9.4,,050216,,E*64
$GPRMC,154511.767,A,5419.446,N,01011.240,E,9.3,,050216,,E*69
$GPRMC,154511.803,A,5419.446,N,01011.240,E,9.3,,050216,,E*64
$GPRMC,154512.763,A,5419.439,N,01011.229,E,9.3,,050216,,E*69
$GPRMC,154512.81,A,5419.439,N,01011.229,E,9.3,,050216,,E*52
$GPRMC,154513.758,A,5419.433,N,01011.217,E,9.2,,050216,,E*66
$GPRMC,154513.806,A,5419.433,N,01011.217,E,9.2,,050216,,E*62
$GPRMC,154514.83,A,5419.427,N,01011.205,E,9.4,,050216,,E*50
$GPRMC,154514.775,A,5419.427,N,01011.205,E,9.4,,050216,,E*6E
$GPRMC,154515.817,A,5419.421,N,01011.192,E,9.2,,050216,,E*69
$GPRMC,154515.77,A,5419.421,N,01011.192,E,9.2,,050216,,E*57
$GPRMC,154516.776,A,5419.417,N,01011.179,E,9.0,,050216,,E*60
$GPRMC,154516.823,A,5419.417,N,01011.179,E,9.0,,050216,,E*6F
$GPRMC,154517.779,A,5419.411,N,01011.166,E,8.9,,050216,,E*6E
$GPRMC,154517.826,A,5419.411,N,01011.166,E,8.9,,050216,,E*6B
$GPRMC,154518.759,A,5419.406,N,01011.153,E,8.9,,050216,,E*63
$GPRMC,154518.811,A,5419.406,N,01011.153,E,8.9,,050216,,E*60
$GPRMC,154519.762,A,5419.401,N,01011.140,E,9.1,,050216,,E*66
$GPRMC,154519.817,A,5419.401,N,01011.140,E,9.1,,050216,,E*6B
$GPRMC,154520.803,A,5419.397,N,01011.127,E,8.9,,050216,,E*64
$GPRMC,154520.768,A,5419.397,N,01011.127,E,8.9,,050216,,E*66
$GPRMC,154521.77,A,5419.392,N,01011.115,E,8.7,,050216,,E*54
$GPRMC,154521.825,A,5419.392,N,01011.115,E,8.7,,050216,,E*6B
$GPRMC,154522.774,A,5419.387,N,01011.102,E,8.8,,050216,,E*6E
$GPRMC,154522.83,A,5419.387,N,01011.102,E,8.8,,050216,,E*51
$GPRMC,154523.779,A,5419.382,N,01011.090,E,9.1,,050216,,E*65
$GPRMC,154523.826,A,5419.382,N,01011.090,E,9.1,,050216,,E*60
$GPRMC,154524.781,A,5419.377,N,01011.076,E,9.6,,050216,,E*60
$GPRMC,154524.818,A,5419.377,N,01011.076,E,9.6,,050216,,E*6F
$GPRMC,154525.783,A,5419.371,N,01011.062,E,9.9,,050216,,E*6F
$GPRMC,154525.834,A,5419.371,N,01011.062,E,9.9,,050216,,E*6C
$GPRMC,154526.834,A,5419.365,N,01011.047,E,10.2,,050216,,E*5E
$GPRMC,154526.78,A,5419.365,N,01011.047,E,10.2,,050216,,E*6E
$GPRMC,154527.783,A,5419.359,N,01011.034,E,10.4,,050216,,E*51
$GPRMC,154527.825,A,5419.359,N,01011.034,E,10.4,,050216,,E*52
$GPRMC,154528.77,A,5419.353,N,01011.020,E,10.5,,050216,,E*6C
$GPRMC,154528.813,A,5419.353,N,01011.020,E,10.5,,050216,,E*56
$GPRMC,154529.77,A,5419.347,N,01011.006,E,10.3,,050216,,E*6A
$GPRMC,154529.813,A,5419.347,N,01011.006,E,10.3,,050216,,E*50
$GPRMC,154530.765,A,5419.341,N,01010.992,E,10.3,,050216,,E*55
$GPRMC,154530.821,A,5419.341,N,01010.992,E,10.3,,050216,,E*5A
$GPRMC,154531.766,A,5419.335,N,01010.977,E,10.5,,050216,,E*59
$GPRMC,154531.823,A,5419.335,N,01010.977,E,10.5,,050216,,E*57
$GPRMC,154532.768,A,5419.329,N,01010.963,E,10.2,,050216,,E*5B
$GPRMC,154532.825,A,5419.329,N,01010.963,E,10.2,,050216,,E*5D
$GPRMC,154533.842,A,5419.323,N,01010.950,E,10.1,,050216,,E*54
$GPRMC,154533.77,A,5419.323,N,01010.950,E,10.1,,050216,,E*6A
$GPRMC,154534.763,A,5419.317,N,01010.936,E,10.1,,050216,,E*58
$GPRMC,154534.825,A,5419.317,N,01010.936,E,10.1,,050216,,E*55
$GPRMC,154535.759,A,5419.311,N,01010.923,E,10.2,,050216,,E*51
$GPRMC,154535.808,A,5419.311,N,01010.923,E,10.2,,050216,,E*5A
$GPRMC,154536.749,A,5419.304,N,01010.909,E,10.2,,050216,,E*5F
$GPRMC,154536.801,A,5419.304,N,01010.909,E,10.2,,050216,,E*5C
$GPRMC,154537.759,A,5419.297,N,01010.896,E,10.3,,050216,,E*52
$GPRMC,154537.813,A,5419.297,N,01010.896,E,10.3,,050216,,E*53
$GPRMC,154538.766,A,5419.291,N,01010.883,E,10.4,,050216,,E*54
$GPRMC,154538.815,A,5419.291,N,01010.883,E,10.4,,050216,,E*5F
$GPRMC,154539.763,A,5419.284,N,01010.869,E,10.4,,050216,,E*50
$GPRMC,154539.814,A,5419.284,N,01010.869,E,10.4,,050216,,E*5F
$GPRMC,154540.76,A,5419.277,N,01010.856,E,10.5,,050216,,E*6C
$GPRMC,154540.813,A,5419.277,N,01010.856,E,10.5,,050216,,E*57
$GPRMC,154541.755,A,5419.271,N,01010.842,E,10.5,,050216,,E*58
$GPRMC,154541.809,A,5419.271,N,01010.842,E,10.5,,050216,,E*5E
$GPRMC,154542.744,A,5419.264,N,01010.828,E,10.6,,050216,,E*50
$GPRMC,154542.797,A,5419.264,N,01010.828,E,10.6,,050216,,E*5E
$GPRMC,154543.757,A,5419.256,N,01010.815,E,10.7,,050216,,E*5D
$GPRMC,154543.823,A,5419.256,N,01010.815,E,10.7,,050216,,E*51
$GPRMC,154544.754,A,5419.248,N,01010.801,E,10.8,,050216,,E*5C
$GPRMC,154544.818,A,5419.248,N,01010.801,E,10.8,,050216,,E*5B
$GPRMC,154545.754,A,5419.242,N,01010.787,E,10.7,,050216,,E*59
$GPRMC,154545.804,A,5419.242,N,01010.787,E,10.7,,050216,,E*53
$GPRMC,154546.801,A,5419.234,N,01010.774,E,10.7,,050216,,E*58
$GPRMC,154546.754,A,5419.234,N,01010.774,E,10.7,,050216,,E*57
$GPRMC,154547.757,A,5419.227,N,01010.761,E,10.7,,050216,,E*53
$GPRMC,154547.792,A,5419.227,N,01010.761,E,10.7,,050216,,E*5A
$GPRMC,154548.754,A,5419.219,N,01010.747,E,10.8,,050216,,E*59
$GPRMC,154548.816,A,5419.219,N,01010.747,E,10.8,,050216,,E*50
$GPRMC,154549.781,A,5419.211,N,01010.734,E,10.7,,050216,,E*53
$GPRMC,154549.817,A,5419.211,N,01010.734,E,10.7,,050216,,E*53
$GPRMC,154550.779,A,5419.204,N,01010.721,E,10.8,,050216,,E*53
$GPRMC,154550.82,A,5419.204,N,01010.721,E,10.8,,050216,,E*60
$GPRMC,154554.719,A,5419.174,N,01010.675,E,10.8,,050216,,E*55
$GPRMC,154554.878,A,5419.170,N,01010.669,E,10.8,,050216,,E*54
$GPRMC,154554.862,A,5419.170,N,01010.669,E,10.8,,050216,,E*5F
$GPRMC,154555.747,A,5419.164,N,01010.658,E,10.1,,050216,,E*58
$GPRMC,154555.785,A,5419.164,N,01010.658,E,10.1,,050216,,E*56
$GPRMC,154556.753,A,5419.155,N,01010.648,E,10.2,,050216,,E*5E
$GPRMC,154556.779,A,5419.155,N,01010.648,E,10.2,,050216,,E*56
$GPRMC,154557.759,A,5419.148,N,01010.637,E,10.7,,050216,,E*54
$GPRMC,154557.815,A,5419.148,N,01010.637,E,10.7,,050216,,E*53
$GPRMC,154558.761,A,5419.140,N,01010.624,E,10.9,,050216,,E*54
$GPRMC,154558.81,A,5419.140,N,01010.624,E,10.9,,050216,,E*6D
$GPRMC,154559.758,A,5419.130,N,01010.614,E,10.9,,050216,,E*5B
$GPRMC,154559.806,A,5419.130,N,01010.614,E,10.9,,050216,,E*5F
$GPRMC,154600.749,A,5419.122,N,01010.602,E,10.9,,050216,,E*50
$GPRMC,154600.797,A,5419.122,N,01010.602,E,10.9,,050216,,E*53
$GPRMC,154601.753,A,5419.111,N,01010.592,E,10.9,,050216,,E*50
$GPRMC,154601.787,A,5419.111,N,01010.592,E,10.9,,050216,,E*59
$GPRMC,154602.757,A,5419.102,N,01010.582,E,11.0,,050216,,E*5C
$GPRMC,154602.799,A,5419.102,N,01010.582,E,11.0,,050216,,E*5E
$GPRMC,154603.752,A,5419.093,N,01010.571,E,11.0,,050216,,E*5D
$GPRMC,154603.807,A,5419.093,N,01010.571,E,11.0,,050216,,E*52
$GPRMC,154604.753,A,5419.084,N,01010.560,E,11.0,,050216,,E*5D
$GPRMC,154605.792,A,5419.075,N,01010.550,E,11.0,,050216,,E*5C
$GPRMC,154605.754,A,5419.075,N,01010.550,E,11.0,,050216,,E*56
$GPRMC,154604.817,A,5419.084,N,01010.560,E,11.0,,050216,,E*52
$GPRMC,154606.811,A,5419.066,N,01010.539,E,11.0,,050216,,E*56
$GPRMC,154606.754,A,5419.066,N,01010.539,E,11.0,,050216,,E*58
$GPRMC,154607.755,A,5419.057,N,01010.529,E,10.9,,050216,,E*53
$GPRMC,154607.814,A,5419.057,N,01010.529,E,10.9,,050216,,E*59
$GPRMC,154608.764,A,5419.048,N,01010.518,E,11.0,,050216,,E*5A
$GPRMC,154608.796,A,5419.048,N,01010.518,E,11.0,,050216,,E*57
$GPRMC,154609.762,A,5419.039,N,01010.508,E,10.8,,050216,,E*53
$GPRMC,154609.796,A,5419.039,N,01010.508,E,10.8,,050216,,E*58
$GPRMC,154610.758,A,5419.030,N,01010.498,E,10.8,,050216,,E*53
$GPRMC,154610.82,A,5419.030,N,01010.498,E,10.8,,050216,,E*63
$GPRMC,154611.756,A,5419.021,N,01010.487,E,10.8,,050216,,E*52
$GPRMC,154611.795,A,5419.021,N,01010.487,E,10.8,,050216,,E*5D
$GPRMC,154612.755,A,5419.013,N,01010.477,E,10.8,,050216,,E*5C
$GPRMC,154612.805,A,5419.013,N,01010.477,E,10.8,,050216,,E*56
$GPRMC,154613.806,A,5419.004,N,01010.466,E,10.9,,050216,,E*53
$GPRMC,154613.826,A,5419.004,N,01010.466,E,10.9,,050216,,E*51
$GPRMC,154614.762,A,5418.995,N,01010.454,E,10.9,,050216,,E*58
$GPRMC,154614.812,A,5418.995,N,01010.454,E,10.9,,050216,,E*50
$GPRMC,154615.752,A,5418.987,N,01010.443,E,10.8,,050216,,E*5E
$GPRMC,154615.798,A,5418.987,N,01010.443,E,10.8,,050216,,E*58
$GPRMC,154616.754,A,5418.979,N,01010.432,E,10.6,,050216,,E*52
$GPRMC,154616.802,A,5418.979,N,01010.432,E,10.6,,050216,,E*5E
$GPRMC,154617.749,A,5418.971,N,01010.421,E,10.6,,050216,,E*55
$GPRMC,154617.806,A,5418.971,N,01010.421,E,10.6,,050216,,E*51
$GPRMC,154618.757,A,5418.964,N,01010.408,E,10.4,,050216,,E*58
$GPRMC,154618.788,A,5418.964,N,01010.408,E,10.4,,050216,,E*5A
$GPRMC,154619.765,A,5418.957,N,01010.395,E,10.3,,050216,,E*5C
$GPRMC,154619.808,A,5418.957,N,01010.395,E,10.3,,050216,,E*58
$GPRMC,154620.759,A,5418.951,N,01010.381,E,10.2,,050216,,E*5B
$GPRMC,154620.812,A,5418.951,N,01010.381,E,10.2,,050216,,E*5B
$GPRMC,154621.755,A,5418.946,N,01010.366,E,9.8,,050216,,E*6B
$GPRMC,154621.811,A,5418.946,N,01010.366,E,9.8,,050216,,E*64
$GPRMC,154622.748,A,5418.942,N,01010.351,E,9.6,,050216,,E*6A
$GPRMC,154622.783,A,5418.942,N,01010.351,E,9.6,,050216,,E*6D
$GPRMC,154623.815,A,5418.938,N,01010.336,E,9.4,,050216,,E*62
$GPRMC,154623.757,A,5418.938,N,01010.336,E,9.4,,050216,,E*6B
$GPRMC,154624.758,A,5418.936,N,01010.321,E,9.0,,050216,,E*6F
$GPRMC,154624.774,A,5418.936,N,01010.321,E,9.0,,050216,,E*61
$GPRMC,154625.755,A,5418.934,N,01010.307,E,9.0,,050216,,E*65
$GPRMC,154625.819,A,5418.934,N,01010.307,E,9.0,,050216,,E*62
$GPRMC,154626.764,A,5418.933,N,01010.292,E,8.7,,050216,,E*68
$GPRMC,154626.813,A,5418.933,N,01010.292,E,8.7,,050216,,E*67
$GPRMC,154627.773,A,5418.932,N,01010.277,E,8.5,,050216,,E*67
$GPRMC,154627.815,A,5418.932,N,01010.277,E,8.5,,050216,,E*68
$GPRMC,154628.774,A,5418.932,N,01010.263,E,8.3,,050216,,E*6C
$GPRMC,154628.824,A,5418.932,N,01010.263,E,8.3,,050216,,E*66
$GPRMC,154629.778,A,5418.932,N,01010.248,E,8.3,,050216,,E*68
$GPRMC,154629.83,A,5418.932,N,01010.248,E,8.3,,050216,,E*5B
$GPRMC,154630.772,A,5418.933,N,01010.234,E,8.2,,050216,,E*61
$GPRMC,154630.845,A,5418.933,N,01010.234,E,8.2,,050216,,E*6A
$GPRMC,154631.791,A,5418.933,N,01010.221,E,8.1,,050216,,E*6A
$GPRMC,154631.842,A,5418.933,N,01010.221,E,8.1,,050216,,E*6B
$GPRMC,154632.765,A,5418.934,N,01010.207,E,8.1,,050216,,E*61
$GPRMC,154632.815,A,5418.934,N,01010.207,E,8.1,,050216,,E*69
$GPRMC,154633.758,A,5418.934,N,01010.194,E,7.9,,050216,,E*60
$GPRMC,154633.803,A,5418.934,N,01010.194,E,7.9,,050216,,E*61
$GPRMC,154634.766,A,5418.935,N,01010.181,E,7.4,,050216,,E*62
$GPRMC,154634.811,A,5418.935,N,01010.181,E,7.4,,050216,,E*6D
$GPRMC,154635.775,A,5418.935,N,01010.169,E,6.4,,050216,,E*66
$GPRMC,154635.829,A,5418.935,N,01010.169,E,6.4,,050216,,E*60
$GPRMC,154636.776,A,5418.935,N,01010.159,E,5.3,,050216,,E*61
$GPRMC,154636.823,A,5418.935,N,01010.159,E,5.3,,050216,,E*6E
$GPRMC,154637.764,A,5418.935,N,01010.151,E,4.5,,050216,,E*6C
$GPRMC,154637.813,A,5418.935,N,01010.151,E,4.5,,050216,,E*63
$GPRMC,154638.769,A,5418.935,N,01010.144,E,3.7,,050216,,E*6F
$GPRMC,154638.811,A,5418.935,N,01010.144,E,3.7,,050216,,E*6F
$GPRMC,154639.78,A,5418.934,N,01010.138,E,3.4,,050216,,E*50
$GPRMC,154639.825,A,5418.934,N,01010.138,E,3.4,,050216,,E*60
$GPRMC,154640.775,A,5418.934,N,01010.134,E,2.3,,050216,,E*6E
$GPRMC,154640.841,A,5418.934,N,01010.134,E,2.3,,050216,,E*66
$GPRMC,154641.767,A,5418.934,N,01010.131,E,1.3,,050216,,E*6A
$GPRMC,154641.824,A,5418.934,N,01010.131,E,1.3,,050216,,E*62
$GPRMC,154642.764,A,5418.934,N,01010.130,E,0.7,,050216,,E*6E
$GPRMC,154642.809,A,5418.934,N,01010.130,E,0.7,,050216,,E*6A
$GPRMC,154643.772,A,5418.934,N,01010.129,E,0.2,,050216,,E*65
$GPRMC,154643.805,A,5418.934,N,01010.129,E,0.2,,050216,,E*6A
$GPRMC,154644.777,A,5418.934,N,01010.128,E,0.2,,050216,,E*66
$GPRMC,154644.813,A,5418.934,N,01010.128,E,0.2,,050216,,E*6B
$GPRMC,154645.772,A,5418.934,N,01010.129,E,0.2,,050216,,E*63
$GPRMC,154645.811,A,5418.934,N,01010.129,E,0.2,,050216,,E*69
$GPRMC,154646.77,A,5418.935,N,01010.128,E,0.2,,050216,,E*52
$GPRMC,154646.814,A,5418.935,N,01010.128,E,0.2,,050216,,E*6F
$GPRMC,154647.764,A,5418.935,N,01010.128,E,0.2,,050216,,E*66
$GPRMC,154647.814,A,5418.935,N,01010.128,E,0.2,,050216,,E*6E
$GPRMC,154648.766,A,5418.934,N,01010.128,E,0.2,,050216,,E*6A
$GPRMC,154648.818,A,5418.934,N,01010.128,E,0.2,,050216,,E*6C
$GPRMC,154649.772,A,5418.934,N,01010.128,E,0.2,,050216,,E*6E
$GPRMC,154649.823,A,5418.934,N,01010.128,E,0.2,,050216,,E*65
$GPRMC,154650.766,A,5418.934,N,01010.128,E,0.2,,050216,,E*63
$GPRMC,154650.819,A,5418.934,N,01010.128,E,0.2,,050216,,E*64
$GPRMC,154651.769,A,5418.934,N,01010.127,E,0.2,,050216,,E*62
$GPRMC,154651.82,A,5418.934,N,01010.127,E,0.2,,050216,,E*50
$GPRMC,154652.762,A,5418.934,N,01010.127,E,0.2,,050216,,E*6A
$GPRMC,154652.8,A,5418.934,N,01010.127,E,0.2,,050216,,E*61
$GPRMC,154653.846,A,5418.935,N,01010.128,E,0.2,,050216,,E*6C
$GPRMC,154653.775,A,5418.935,N,01010.128,E,0.2,,050216,,E*63
$GPRMC,154654.776,A,5418.934,N,01010.128,E,0.2,,050216,,E*66
$GPRMC,154654.818,A,5418.934,N,01010.128,E,0.2,,050216,,E*61
$GPRMC,154655.776,A,5418.934,N,01010.128,E,0.2,,050216,,E*67
$GPRMC,154655.811,A,5418.934,N,01010.128,E,0.2,,050216,,E*69
$GPRMC,154656.772,A,5418.934,N,01010.128,E,0.2,,050216,,E*60
$GPRMC,154656.836,A,5418.934,N,01010.128,E,0.2,,050216,,E*6F
$GPRMC,154657.77,A,5418.934,N,01010.128,E,0.2,,050216,,E*53
$GPRMC,154657.815,A,5418.934,N,01010.128,E,0.2,,050216,,E*6F
$GPRMC,154658.774,A,5418.934,N,01010.128,E,0.2,,050216,,E*68
$GPRMC,154658.824,A,5418.934,N,01010.128,E,0.2,,050216,,E*62
$GPRMC,154659.774,A,5418.934,N,01010.128,E,0.2,,050216,,E*69
$GPRMC,154659.815,A,5418.934,N,01010.128,E,0.2,,050216,,E*61
$GPRMC,154700.773,A,5418.934,N,01010.128,E,0.2,,050216,,E*63
$GPRMC,154700.807,A,5418.934,N,01010.128,E,0.2,,050216,,E*6F
$GPRMC,154701.77,A,5418.934,N,01010.128,E,0.2,,050216,,E*51
$GPRMC,154701.82,A,5418.934,N,01010.128,E,0.2,,050216,,E*5B
$GPRMC,154702.771,A,5418.934,N,01010.128,E,0.2,,050216,,E*63
$GPRMC,154702.823,A,5418.934,N,01010.128,E,0.2,,050216,,E*6B
$GPRMC,154703.771,A,5418.934,N,01010.128,E,0.2,,050216,,E*62
$GPRMC,154703.819,A,5418.934,N,01010.128,E,0.2,,050216,,E*63
$GPRMC,154704.761,A,5418.934,N,01010.128,E,0.2,,050216,,E*64
$GPRMC,154704.788,A,5418.934,N,01010.128,E,0.2,,050216,,E*63
$GPRMC,154705.765,A,5418.934,N,01010.128,E,0.2,,050216,,E*61
$GPRMC,154705.826,A,5418.934,N,01010.128,E,0.2,,050216,,E*69
$GPRMC,154706.763,A,5418.934,N,01010.127,E,0.8,,050216,,E*61
$GPRMC,154706.81,A,5418.934,N,01010.127,E,0.8,,050216,,E*5A
$GPRMC,154707.768,A,5418.934,N,01010.125,E,1.3,,050216,,E*63
$GPRMC,154707.826,A,5418.934,N,01010.125,E,1.3,,050216,,E*66
$GPRMC,154708.775,A,5418.934,N,01010.122,E,1.9,,050216,,E*6D
$GPRMC,154708.822,A,5418.934,N,01010.122,E,1.9,,050216,,E*60
$GPRMC,154709.771,A,5418.933,N,01010.117,E,3.0,,050216,,E*62
$GPRMC,154709.832,A,5418.933,N,01010.117,E,3.0,,050216,,E*6A
$GPRMC,154710.767,A,5418.933,N,01010.112,E,3.2,,050216,,E*6A
$GPRMC,154710.794,A,5418.933,N,01010.112,E,3.2,,050216,,E*66
$GPRMC,154711.773,A,5418.932,N,01010.106,E,3.4,,050216,,E*6C
$GPRMC,154711.82,A,5418.932,N,01010.106,E,3.4,,050216,,E*55
$GPRMC,154712.771,A,5418.930,N,01010.100,E,4.7,,050216,,E*6D
$GPRMC,154712.819,A,5418.930,N,01010.100,E,4.7,,050216,,E*6C
$GPRMC,154713.77,A,5418.928,N,01010.092,E,4.9,,050216,,E*50
$GPRMC,154713.83,A,5418.928,N,01010.092,E,4.9,,050216,,E*5B
$GPRMC,154714.774,A,5418.926,N,01010.085,E,5.0,,050216,,E*63
$GPRMC,154714.838,A,5418.926,N,01010.085,E,5.0,,050216,,E*64
$GPRMC,154715.771,A,5418.924,N,01010.077,E,5.4,,050216,,E*6C
$GPRMC,154715.81,A,5418.924,N,01010.077,E,5.4,,050216,,E*54
$GPRMC,154716.771,A,5418.922,N,01010.069,E,6.2,,050216,,E*63
$GPRMC,154716.799,A,5418.922,N,01010.069,E,6.2,,050216,,E*65
$GPRMC,154717.762,A,5418.918,N,01010.059,E,6.2,,050216,,E*6A
$GPRMC,154717.816,A,5418.918,N,01010.059,E,6.2,,050216,,E*66
$GPRMC,154718.765,A,5418.915,N,01010.049,E,6.6,,050216,,E*6A
$GPRMC,154718.81,A,5418.915,N,01010.049,E,6.6,,050216,,E*57
$GPRMC,154719.775,A,5418.912,N,01010.039,E,6.7,,050216,,E*6B
$GPRMC,154719.826,A,5418.912,N,01010.039,E,6.7,,050216,,E*62
$GPRMC,154720.773,A,5418.908,N,01010.029,E,7.0,,050216,,E*6B
$GPRMC,154720.812,A,5418.908,N,01010.029,E,7.0,,050216,,E*63
$GPRMC,154721.775,A,5418.904,N,01010.019,E,7.3,,050216,,E*60
$GPRMC,154721.808,A,5418.904,N,01010.019,E,7.3,,050216,,E*65
$GPRMC,154722.776,A,5418.900,N,01010.008,E,7.6,,050216,,E*61
$GPRMC,154722.816,A,5418.900,N,01010.008,E,7.6,,050216,,E*68
$GPRMC,154723.773,A,5418.897,N,01009.997,E,7.8,,050216,,E*63
$GPRMC,154723.812,A,5418.897,N,01009.997,E,7.8,,050216,,E*6B
$GPRMC,154724.772,A,5418.893,N,01009.985,E,7.6,,050216,,E*6C
$GPRMC,154724.82,A,5418.893,N,01009.985,E,7.6,,050216,,E*54
$GPRMC,154725.772,A,5418.890,N,01009.973,E,7.7,,050216,,E*66
$GPRMC,154725.837,A,5418.890,N,01009.973,E,7.7,,050216,,E*68
$GPRMC,154726.773,A,5418.886,N,01009.961,E,7.7,,050216,,E*60
$GPRMC,154726.822,A,5418.886,N,01009.961,E,7.7,,050216,,E*6B
$GPRMC,154727.765,A,5418.883,N,01009.949,E,7.7,,050216,,E*69
$GPRMC,154727.811,A,5418.883,N,01009.949,E,7.7,,050216,,E*65
$GPRMC,154728.772,A,5418.880,N,01009.937,E,7.6,,050216,,E*6B
$GPRMC,154728.82,A,5418.880,N,01009.937,E,7.6,,050216,,E*53
$GPRMC,154729.762,A,5418.876,N,01009.926,E,7.6,,050216,,E*62
$GPRMC,154729.804,A,5418.876,N,01009.926,E,7.6,,050216,,E*6D
$GPRMC,154730.767,A,5418.873,N,01009.914,E,7.5,,050216,,E*68
$GPRMC,154730.809,A,5418.873,N,01009.914,E,7.5,,050216,,E*6F
$GPRMC,154731.769,A,5418.869,N,01009.903,E,7.2,,050216,,E*6D
$GPRMC,154731.817,A,5418.869,N,01009.903,E,7.2,,050216,,E*6B
$GPRMC,154732.77,A,5418.866,N,01009.892,E,7.1,,050216,,E*53
$GPRMC,154732.808,A,5418.866,N,01009.892,E,7.1,,050216,,E*63
$GPRMC,154733.761,A,5418.863,N,01009.881,E,7.1,,050216,,E*65
$GPRMC,154733.8,A,5418.863,N,01009.881,E,7.1,,050216,,E*6D
$GPRMC,154734.765,A,5418.861,N,01009.870,E,6.9,,050216,,E*63
$GPRMC,154734.823,A,5418.861,N,01009.870,E,6.9,,050216,,E*6E
$GPRMC,154735.775,A,5418.858,N,01009.858,E,6.9,,050216,,E*63
$GPRMC,154735.825,A,5418.858,N,01009.858,E,6.9,,050216,,E*69
$GPRMC,154736.761,A,5418.855,N,01009.848,E,6.8,,050216,,E*68
$GPRMC,154736.796,A,5418.855,N,01009.848,E,6.8,,050216,,E*60
$GPRMC,154737.759,A,5418.852,N,01009.838,E,6.8,,050216,,E*62
$GPRMC,154737.808,A,5418.852,N,01009.838,E,6.8,,050216,,E*69
$GPRMC,154738.757,A,5418.849,N,01009.827,E,7.0,,050216,,E*6E
$GPRMC,154738.792,A,5418.849,N,01009.827,E,7.0,,050216,,E*67
$GPRMC,154739.76,A,5418.846,N,01009.816,E,7.1,,050216,,E*57
$GPRMC,154739.791,A,5418.846,N,01009.816,E,7.1,,050216,,E*69
$GPRMC,154740.757,A,5418.843,N,01009.806,E,6.9,,050216,,E*60
$GPRMC,154740.813,A,5418.843,N,01009.806,E,6.9,,050216,,E*6F
$GPRMC,154741.757,A,5418.840,N,01009.796,E,6.8,,050216,,E*65
$GPRMC,154741.802,A,5418.840,N,01009.796,E,6.8,,050216,,E*6A
$GPRMC,154742.755,A,5418.837,N,01009.784,E,7.1,,050216,,E*6F
$GPRMC,154742.805,A,5418.837,N,01009.784,E,7.1,,050216,,E*65
$GPRMC,154743.756,A,5418.834,N,01009.774,E,6.7,,050216,,E*66
$GPRMC,154743.817,A,5418.834,N,01009.774,E,6.7,,050216,,E*6C
$GPRMC,154744.758,A,5418.832,N,01009.765,E,6.9,,050216,,E*67
$GPRMC,154744.806,A,5418.832,N,01009.765,E,6.9,,050216,,E*63
$GPRMC,154745.76,A,5418.828,N,01009.755,E,6.8,,050216,,E*54
$GPRMC,154745.791,A,5418.828,N,01009.755,E,6.8,,050216,,E*6A
$GPRMC,154746.761,A,5418.825,N,01009.744,E,7.0,,050216,,E*62
$GPRMC,154746.804,A,5418.825,N,01009.744,E,7.0,,050216,,E*6E
$GPRMC,154747.798,A,5418.822,N,01009.734,E,7.3,,050216,,E*66
$GPRMC,154748.748,A,5418.818,N,01009.723,E,7.3,,050216,,E*6B
$GPRMC,154747.757,A,5418.822,N,01009.734,E,7.3,,050216,,E*65
$GPRMC,154748.786,A,5418.818,N,01009.723,E,7.3,,050216,,E*69
$GPRMC,154749.757,A,5418.815,N,01009.711,E,7.3,,050216,,E*68
$GPRMC,154749.823,A,5418.815,N,01009.711,E,7.3,,050216,,E*64
$GPRMC,154750.764,A,5418.812,N,01009.699,E,7.3,,050216,,E*66
$GPRMC,154750.812,A,5418.812,N,01009.699,E,7.3,,050216,,E*68
$GPRMC,154751.759,A,5418.810,N,01009.688,E,7.3,,050216,,E*6B
$GPRMC,154751.813,A,5418.810,N,01009.688,E,7.3,,050216,,E*6A
$GPRMC,154752.757,A,5418.808,N,01009.675,E,7.3,,050216,,E*6D
$GPRMC,154752.808,A,5418.808,N,01009.675,E,7.3,,050216,,E*68
$GPRMC,154753.759,A,5418.806,N,01009.664,E,7.3,,050216,,E*6C
$GPRMC,154753.797,A,5418.806,N,01009.664,E,7.3,,050216,,E*6E
$GPRMC,154754.758,A,5418.805,N,01009.652,E,7.4,,050216,,E*6B
$GPRMC,154754.81,A,5418.805,N,01009.652,E,7.4,,050216,,E*58
$GPRMC,154755.758,A,5418.803,N,01009.639,E,7.6,,050216,,E*63
$GPRMC,154755.806,A,5418.803,N,01009.639,E,7.6,,050216,,E*67
$GPRMC,154756.756,A,5418.801,N,01009.627,E,7.8,,050216,,E*6D
$GPRMC,154756.802,A,5418.801,N,01009.627,E,7.8,,050216,,E*63
$GPRMC,154757.768,A,5418.799,N,01009.615,E,7.6,,050216,,E*60
$GPRMC,154757.811,A,5418.799,N,01009.615,E,7.6,,050216,,E*61
$GPRMC,154758.778,A,5418.797,N,01009.602,E,7.5,,050216,,E*65
$GPRMC,154758.827,A,5418.797,N,01009.602,E,7.5,,050216,,E*60
$GPRMC,154759.771,A,5418.796,N,01009.590,E,7.5,,050216,,E*64
$GPRMC,154759.802,A,5418.796,N,01009.590,E,7.5,,050216,,E*6F
$GPRMC,154800.768,A,5418.794,N,01009.577,E,7.4,,050216,,E*65
$GPRMC,154800.817,A,5418.794,N,01009.577,E,7.4,,050216,,E*62
$GPRMC,154801.766,A,5418.792,N,01009.565,E,7.2,,050216,,E*69
$GPRMC,154801.82,A,5418.792,N,01009.565,E,7.2,,050216,,E*54
$GPRMC,154802.769,A,5418.791,N,01009.553,E,7.2,,050216,,E*63
$GPRMC,154802.814,A,5418.791,N,01009.553,E,7.2,,050216,,E*66
$GPRMC,154803.761,A,5418.789,N,01009.541,E,7.2,,050216,,E*60
$GPRMC,154803.815,A,5418.789,N,01009.541,E,7.2,,050216,,E*6C
$GPRMC,154804.77,A,5418.787,N,01009.530,E,7.1,,050216,,E*5C
$GPRMC,154804.816,A,5418.787,N,01009.530,E,7.1,,050216,,E*63
$GPRMC,154805.776,A,5418.785,N,01009.518,E,7.2,,050216,,E*60
$GPRMC,154805.825,A,5418.785,N,01009.518,E,7.2,,050216,,E*69
$GPRMC,154806.754,A,5418.782,N,01009.508,E,6.8,,050216,,E*6E
$GPRMC,154806.783,A,5418.782,N,01009.508,E,6.8,,050216,,E*64
$GPRMC,154807.802,A,5418.781,N,01009.493,E,7.4,,050216,,E*6E
$GPRMC,154807.764,A,5418.781,N,01009.493,E,7.4,,050216,,E*61
$GPRMC,154808.778,A,5418.779,N,01009.481,E,7.5,,050216,,E*66
$GPRMC,154808.827,A,5418.779,N,01009.481,E,7.5,,050216,,E*63
$GPRMC,154809.771,A,5418.777,N,01009.469,E,7.6,,050216,,E*65
$GPRMC,154809.814,A,5418.777,N,01009.469,E,7.6,,050216,,E*69
$GPRMC,154810.774,A,5418.776,N,01009.456,E,7.6,,050216,,E*65
$GPRMC,154810.844,A,5418.776,N,01009.456,E,7.6,,050216,,E*69
$GPRMC,154811.776,A,5418.774,N,01009.443,E,7.7,,050216,,E*61
$GPRMC,154811.842,A,5418.774,N,01009.443,E,7.7,,050216,,E*69
$GPRMC,154812.776,A,5418.772,N,01009.431,E,7.3,,050216,,E*65
$GPRMC,154812.834,A,5418.772,N,01009.431,E,7.3,,050216,,E*6C
$GPRMC,154813.823,A,5418.769,N,01009.419,E,7.3,,050216,,E*6B
$GPRMC,154813.773,A,5418.769,N,01009.419,E,7.3,,050216,,E*61
$GPRMC,154814.774,A,5418.767,N,01009.407,E,7.4,,050216,,E*67
$GPRMC,154814.83,A,5418.767,N,01009.407,E,7.4,,050216,,E*58
$GPRMC,154815.761,A,5418.763,N,01009.396,E,7.1,,050216,,E*6C
$GPRMC,154815.818,A,5418.763,N,01009.396,E,7.1,,050216,,E*6D
$GPRMC,154816.756,A,5418.760,N,01009.386,E,7.0,,050216,,E*68
$GPRMC,154816.799,A,5418.760,N,01009.386,E,7.0,,050216,,E*6B
$GPRMC,154817.757,A,5418.755,N,01009.377,E,6.8,,050216,,E*69
$GPRMC,154817.812,A,5418.755,N,01009.377,E,6.8,,050216,,E*67
$GPRMC,154818.767,A,5418.751,N,01009.368,E,6.8,,050216,,E*6F
$GPRMC,154818.823,A,5418.751,N,01009.368,E,6.8,,050216,,E*60
$GPRMC,154819.777,A,5418.746,N,01009.359,E,6.7,,050216,,E*64
$GPRMC,154819.828,A,5418.746,N,01009.359,E,6.7,,050216,,E*61
$GPRMC,154820.766,A,5418.743,N,01009.350,E,6.7,,050216,,E*62
$GPRMC,154820.816,A,5418.743,N,01009.350,E,6.7,,050216,,E*6A
$GPRMC,154821.766,A,5418.738,N,01009.341,E,6.7,,050216,,E*6F
$GPRMC,154821.821,A,5418.738,N,01009.341,E,6.7,,050216,,E*63
$GPRMC,154822.76,A,5418.733,N,01009.332,E,6.7,,050216,,E*55
$GPRMC,154822.793,A,5418.733,N,01009.332,E,6.7,,050216,,E*69
$GPRMC,154823.757,A,5418.730,N,01009.324,E,6.4,,050216,,E*67
$GPRMC,154823.811,A,5418.730,N,01009.324,E,6.4,,050216,,E*6A
$GPRMC,154824.759,A,5418.725,N,01009.316,E,6.5,,050216,,E*6A
$GPRMC,154824.811,A,5418.725,N,01009.316,E,6.5,,050216,,E*69
$GPRMC,154825.764,A,5418.720,N,01009.308,E,6.7,,050216,,E*6D
$GPRMC,154825.802,A,5418.720,N,01009.308,E,6.7,,050216,,E*62
$GPRMC,154826.766,A,5418.716,N,01009.300,E,6.7,,050216,,E*61
$GPRMC,154826.8,A,5418.716,N,01009.300,E,6.7,,050216,,E*6E
$GPRMC,154827.761,A,5418.710,N,01009.293,E,7.0,,050216,,E*6C
$GPRMC,154827.805,A,5418.710,N,01009.293,E,7.0,,050216,,E*61
$GPRMC,154828.769,A,5418.704,N,01009.285,E,7.2,,050216,,E*6B
$GPRMC,154828.819,A,5418.704,N,01009.285,E,7.2,,050216,,E*63
$GPRMC,154829.827,A,5418.699,N,01009.277,E,7.4,,050216,,E*61
$GPRMC,154829.767,A,5418.699,N,01009.277,E,7.4,,050216,,E*6A
$GPRMC,154830.824,A,5418.693,N,01009.269,E,7.3,,050216,,E*68
$GPRMC,154830.768,A,5418.693,N,01009.269,E,7.3,,050216,,E*6F
$GPRMC,154831.774,A,5418.688,N,01009.261,E,7.2,,050216,,E*60
$GPRMC,154831.831,A,5418.688,N,01009.261,E,7.2,,050216,,E*6E
$GPRMC,154832.772,A,5418.682,N,01009.253,E,7.0,,050216,,E*6C
$GPRMC,154832.823,A,5418.682,N,01009.253,E,7.0,,050216,,E*67
$GPRMC,154833.772,A,5418.677,N,01009.246,E,6.7,,050216,,E*65
$GPRMC,154833.826,A,5418.677,N,01009.246,E,6.7,,050216,,E*6B
$GPRMC,154834.774,A,5418.672,N,01009.239,E,6.6,,050216,,E*68
$GPRMC,154834.836,A,5418.672,N,01009.239,E,6.6,,050216,,E*61
$GPRMC,154835.77,A,5418.667,N,01009.232,E,6.4,,050216,,E*50
$GPRMC,154835.816,A,5418.667,N,01009.232,E,6.4,,050216,,E*6F
$GPRMC,154836.773,A,5418.662,N,01009.225,E,6.4,,050216,,E*63
$GPRMC,154836.835,A,5418.662,N,01009.225,E,6.4,,050216,,E*6E
$GPRMC,154837.798,A,5418.658,N,01009.217,E,6.2,,050216,,E*69
$GPRMC,154837.769,A,5418.658,N,01009.217,E,6.2,,050216,,E*67
$GPRMC,154838.824,A,5418.653,N,01009.210,E,5.7,,050216,,E*64
$GPRMC,154838.777,A,5418.653,N,01009.210,E,5.7,,050216,,E*6D
$GPRMC,154839.774,A,5418.649,N,01009.203,E,5.2,,050216,,E*63
$GPRMC,154839.824,A,5418.649,N,01009.203,E,5.2,,050216,,E*69
$GPRMC,154840.774,A,5418.646,N,01009.198,E,4.5,,050216,,E*65
$GPRMC,154840.816,A,5418.646,N,01009.198,E,4.5,,050216,,E*6E
$GPRMC,154841.774,A,5418.643,N,01009.193,E,4.1,,050216,,E*6E
$GPRMC,154841.832,A,5418.643,N,01009.193,E,4.1,,050216,,E*63
$GPRMC,154842.774,A,5418.640,N,01009.188,E,4.5,,050216,,E*60
$GPRMC,154842.798,A,5418.640,N,01009.188,E,4.5,,050216,,E*62
$GPRMC,154843.844,A,5418.636,N,01009.182,E,4.8,,050216,,E*6B
$GPRMC,154843.774,A,5418.636,N,01009.182,E,4.8,,050216,,E*67
$GPRMC,154844.761,A,5418.633,N,01009.176,E,4.8,,050216,,E*6A
$GPRMC,154844.798,A,5418.633,N,01009.176,E,4.8,,050216,,E*6C
$GPRMC,154845.763,A,5418.627,N,01009.169,E,5.3,,050216,,E*68
$GPRMC,154845.817,A,5418.627,N,01009.169,E,5.3,,050216,,E*64
$GPRMC,154846.774,A,5418.623,N,01009.164,E,5.6,,050216,,E*61
$GPRMC,154846.816,A,5418.623,N,01009.164,E,5.6,,050216,,E*6A
$GPRMC,154847.771,A,5418.619,N,01009.158,E,5.4,,050216,,E*61
$GPRMC,154847.825,A,5418.619,N,01009.158,E,5.4,,050216,,E*6F
$GPRMC,154848.776,A,5418.615,N,01009.152,E,5.6,,050216,,E*6D
$GPRMC,154848.832,A,5418.615,N,01009.152,E,5.6,,050216,,E*62
$GPRMC,154849.776,A,5418.610,N,01009.146,E,5.9,,050216,,E*63
$GPRMC,154849.819,A,5418.610,N,01009.146,E,5.9,,050216,,E*65
$GPRMC,154850.777,A,5418.606,N,01009.140,E,5.6,,050216,,E*64
$GPRMC,154850.828,A,5418.606,N,01009.140,E,5.6,,050216,,E*61
$GPRMC,154851.79,A,5418.600,N,01009.134,E,6.7,,050216,,E*5B
$GPRMC,154851.833,A,5418.600,N,01009.134,E,6.7,,050216,,E*6D
$GPRMC,154852.786,A,5418.595,N,01009.127,E,6.9,,050216,,E*6C
$GPRMC,154852.825,A,5418.595,N,01009.127,E,6.9,,050216,,E*6A
$GPRMC,154853.781,A,5418.589,N,01009.120,E,6.9,,050216,,E*60
$GPRMC,154853.828,A,5418.589,N,01009.120,E,6.9,,050216,,E*6C
$GPRMC,154854.765,A,5418.585,N,01009.112,E,6.7,,050216,,E*6E
$GPRMC,154854.825,A,5418.585,N,01009.112,E,6.7,,050216,,E*65
$GPRMC,154855.765,A,5418.580,N,01009.105,E,5.7,,050216,,E*6F
$GPRMC,154855.822,A,5418.580,N,01009.105,E,5.7,,050216,,E*63
$GPRMC,154856.774,A,5418.576,N,01009.098,E,5.5,,050216,,E*62
$GPRMC,154856.831,A,5418.576,N,01009.098,E,5.5,,050216,,E*6C
$GPRMC,154857.773,A,5418.572,N,01009.092,E,5.4,,050216,,E*6B
$GPRMC,154857.816,A,5418.572,N,01009.092,E,5.4,,050216,,E*67
$GPRMC,154858.77,A,5418.568,N,01009.087,E,5.0,,050216,,E*5C
$GPRMC,154858.821,A,5418.568,N,01009.087,E,5.0,,050216,,E*67
$GPRMC,154859.759,A,5418.565,N,01009.082,E,4.9,,050216,,E*66
$GPRMC,154859.804,A,5418.565,N,01009.082,E,4.9,,050216,,E*61
$GPRMC,154900.77,A,5418.561,N,01009.077,E,4.1,,050216,,E*56
$GPRMC,154900.843,A,5418.561,N,01009.077,E,4.1,,050216,,E*69
$GPRMC,154901.772,A,5418.558,N,01009.073,E,4.1,,050216,,E*6B
$GPRMC,154901.82,A,5418.558,N,01009.073,E,4.1,,050216,,E*53
$GPRMC,154902.774,A,5418.554,N,01009.068,E,4.5,,050216,,E*6C
$GPRMC,154902.829,A,5418.554,N,01009.068,E,4.5,,050216,,E*6B
$GPRMC,154903.764,A,5418.551,N,01009.062,E,4.5,,050216,,E*63
$GPRMC,154903.822,A,5418.551,N,01009.062,E,4.5,,050216,,E*6E
$GPRMC,154904.753,A,5418.547,N,01009.057,E,4.7,,050216,,E*63
$GPRMC,154904.796,A,5418.547,N,01009.057,E,4.7,,050216,,E*6A
$GPRMC,154905.761,A,5418.540,N,01009.049,E,6.0,,050216,,E*6E
$GPRMC,154905.815,A,5418.540,N,01009.049,E,6.0,,050216,,E*62
$GPRMC,154906.762,A,5418.535,N,01009.042,E,6.2,,050216,,E*65
$GPRMC,154906.806,A,5418.535,N,01009.042,E,6.2,,050216,,E*68
$GPRMC,154907.761,A,5418.529,N,01009.035,E,6.3,,050216,,E*6B
$GPRMC,154907.809,A,5418.529,N,01009.035,E,6.3,,050216,,E*6A
$GPRMC,154908.768,A,5418.523,N,01009.030,E,6.7,,050216,,E*66
$GPRMC,154908.811,A,5418.523,N,01009.030,E,6.7,,050216,,E*67
$GPRMC,154909.758,A,5418.517,N,01009.023,E,6.7,,050216,,E*61
$GPRMC,154909.817,A,5418.517,N,01009.023,E,6.7,,050216,,E*65
$GPRMC,154910.765,A,5418.510,N,01009.017,E,7.1,,050216,,E*60
$GPRMC,154910.802,A,5418.510,N,01009.017,E,7.1,,050216,,E*6E
$GPRMC,154911.815,A,5418.504,N,01009.011,E,7.2,,050216,,E*69
$GPRMC,154911.769,A,5418.504,N,01009.011,E,7.2,,050216,,E*6D
$GPRMC,154912.759,A,5418.497,N,01009.005,E,7.0,,050216,,E*61
$GPRMC,154912.804,A,5418.497,N,01009.005,E,7.0,,050216,,E*66
$GPRMC,154913.759,A,5418.491,N,01008.998,E,6.8,,050216,,E*63
$GPRMC,154913.791,A,5418.491,N,01008.998,E,6.8,,050216,,E*67
$GPRMC,154914.757,A,5418.485,N,01008.992,E,6.7,,050216,,E*6A
$GPRMC,154914.802,A,5418.485,N,01008.992,E,6.7,,050216,,E*65
$GPRMC,154915.761,A,5418.480,N,01008.985,E,6.7,,050216,,E*6D
$GPRMC,154915.815,A,5418.480,N,01008.985,E,6.7,,050216,,E*61
$GPRMC,154916.754,A,5418.474,N,01008.979,E,6.4,,050216,,E*63
$GPRMC,154916.8,A,5418.474,N,01008.979,E,6.4,,050216,,E*6D
$GPRMC,154917.757,A,5418.468,N,01008.972,E,6.7,,050216,,E*64
$GPRMC,154917.805,A,5418.468,N,01008.972,E,6.7,,050216,,E*6C
$GPRMC,154918.757,A,5418.462,N,01008.965,E,6.8,,050216,,E*68
$GPRMC,154918.793,A,5418.462,N,01008.965,E,6.8,,050216,,E*60
$GPRMC,154919.757,A,5418.456,N,01008.959,E,6.8,,050216,,E*61
$GPRMC,154919.806,A,5418.456,N,01008.959,E,6.8,,050216,,E*6A
$GPRMC,154920.814,A,5418.450,N,01008.952,E,6.9,,050216,,E*6F
$GPRMC,154920.755,A,5418.450,N,01008.952,E,6.9,,050216,,E*65
$GPRMC,154921.757,A,5418.442,N,01008.945,E,6.9,,050216,,E*63
$GPRMC,154921.807,A,5418.442,N,01008.945,E,6.9,,050216,,E*69
$GPRMC,154922.754,A,5418.436,N,01008.937,E,6.8,,050216,,E*64
$GPRMC,154922.804,A,5418.436,N,01008.937,E,6.8,,050216,,E*6E
$GPRMC,154923.757,A,5418.429,N,01008.931,E,6.8,,050216,,E*6E
$GPRMC,154923.794,A,5418.429,N,01008.931,E,6.8,,050216,,E*61
$GPRMC,154924.755,A,5418.423,N,01008.925,E,6.8,,050216,,E*64
$GPRMC,154924.815,A,5418.423,N,01008.925,E,6.8,,050216,,E*6F
$GPRMC,154925.754,A,5418.417,N,01008.921,E,7.0,,050216,,E*6E
$GPRMC,154925.811,A,5418.417,N,01008.921,E,7.0,,050216,,E*60
$GPRMC,154926.759,A,5418.409,N,01008.916,E,7.2,,050216,,E*69
$GPRMC,154926.802,A,5418.409,N,01008.916,E,7.2,,050216,,E*68
$GPRMC,154927.754,A,5418.402,N,01008.913,E,7.4,,050216,,E*6D
$GPRMC,154927.8,A,5418.402,N,01008.913,E,7.4,,050216,,E*63
$GPRMC,154928.755,A,5418.394,N,01008.909,E,7.6,,050216,,E*62
$GPRMC,154928.811,A,5418.394,N,01008.909,E,7.6,,050216,,E*6D
$GPRMC,154929.757,A,5418.385,N,01008.905,E,8.2,,050216,,E*66
$GPRMC,154929.79,A,5418.385,N,01008.905,E,8.2,,050216,,E*5D
$GPRMC,154930.81,A,5418.377,N,01008.901,E,8.3,,050216,,E*5A
$GPRMC,154930.755,A,5418.377,N,01008.901,E,8.3,,050216,,E*64
$GPRMC,154931.758,A,5418.370,N,01008.898,E,8.2,,050216,,E*6F
$GPRMC,154931.814,A,5418.370,N,01008.898,E,8.2,,050216,,E*68
$GPRMC,154932.759,A,5418.362,N,01008.894,E,8.2,,050216,,E*62
$GPRMC,154932.797,A,5418.362,N,01008.894,E,8.2,,050216,,E*60
$GPRMC,154933.801,A,5418.353,N,01008.891,E,8.3,,050216,,E*67
$GPRMC,154933.754,A,5418.353,N,01008.891,E,8.3,,050216,,E*68
$GPRMC,154934.755,A,5418.344,N,01008.887,E,8.4,,050216,,E*68
$GPRMC,154934.808,A,5418.344,N,01008.887,E,8.4,,050216,,E*6F
$GPRMC,154935.758,A,5418.336,N,01008.883,E,8.3,,050216,,E*62
$GPRMC,154935.796,A,5418.336,N,01008.883,E,8.3,,050216,,E*60
$GPRMC,154936.755,A,5418.328,N,01008.879,E,8.3,,050216,,E*66
$GPRMC,154936.802,A,5418.328,N,01008.879,E,8.3,,050216,,E*6B
$GPRMC,154937.755,A,5418.320,N,01008.876,E,8.2,,050216,,E*61
$GPRMC,154937.811,A,5418.320,N,01008.876,E,8.2,,050216,,E*6E
$GPRMC,154938.755,A,5418.312,N,01008.871,E,8.3,,050216,,E*69
$GPRMC,154938.806,A,5418.312,N,01008.871,E,8.3,,050216,,E*60
$GPRMC,154939.755,A,5418.305,N,01008.866,E,8.6,,050216,,E*6D
$GPRMC,154939.811,A,5418.305,N,01008.866,E,8.6,,050216,,E*62
$GPRMC,154940.755,A,5418.297,N,01008.860,E,8.6,,050216,,E*6F
$GPRMC,154940.812,A,5418.297,N,01008.860,E,8.6,,050216,,E*63
$GPRMC,154941.812,A,5418.289,N,01008.854,E,8.7,,050216,,E*6B
$GPRMC,154941.757,A,5418.289,N,01008.854,E,8.7,,050216,,E*65
$GPRMC,154942.757,A,5418.282,N,01008.847,E,8.5,,050216,,E*6D
$GPRMC,154942.83,A,5418.282,N,01008.847,E,8.5,,050216,,E*53
$GPRMC,154943.754,A,5418.274,N,01008.840,E,8.6,,050216,,E*62
$GPRMC,154943.8,A,5418.274,N,01008.840,E,8.6,,050216,,E*6C
$GPRMC,154944.758,A,5418.267,N,01008.833,E,8.6,,050216,,E*6F
$GPRMC,154944.796,A,5418.267,N,01008.833,E,8.6,,050216,,E*6D
$GPRMC,154945.757,A,5418.259,N,01008.825,E,8.8,,050216,,E*65
$GPRMC,154945.812,A,5418.259,N,01008.825,E,8.8,,050216,,E*6B
$GPRMC,154946.755,A,5418.252,N,01008.817,E,8.8,,050216,,E*6E
$GPRMC,154946.814,A,5418.252,N,01008.817,E,8.8,,050216,,E*64
$GPRMC,154947.763,A,5418.246,N,01008.809,E,8.4,,050216,,E*6C
$GPRMC,154947.825,A,5418.246,N,01008.809,E,8.4,,050216,,E*61
$GPRMC,154948.759,A,5418.239,N,01008.800,E,8.2,,050216,,E*6D
$GPRMC,154948.826,A,5418.239,N,01008.800,E,8.2,,050216,,E*6A
$GPRMC,154949.758,A,5418.233,N,01008.792,E,8.1,,050216,,E*60
$GPRMC,154949.806,A,5418.233,N,01008.792,E,8.1,,050216,,E*64
$GPRMC,154950.763,A,5418.227,N,01008.784,E,8.1,,050216,,E*62
$GPRMC,154950.818,A,5418.227,N,01008.784,E,8.1,,050216,,E*61
$GPRMC,154951.758,A,5418.220,N,01008.775,E,7.9,,050216,,E*65
$GPRMC,154951.806,A,5418.220,N,01008.775,E,7.9,,050216,,E*61
$GPRMC,154952.761,A,5418.215,N,01008.767,E,7.7,,050216,,E*67
$GPRMC,154952.818,A,5418.215,N,01008.767,E,7.7,,050216,,E*66
$GPRMC,154953.764,A,5418.209,N,01008.758,E,7.6,,050216,,E*63
$GPRMC,154953.841,A,5418.209,N,01008.758,E,7.6,,050216,,E*6B
$GPRMC,154954.756,A,5418.202,N,01008.749,E,7.7,,050216,,E*6F
$GPRMC,154954.778,A,5418.202,N,01008.749,E,7.7,,050216,,E*63
$GPRMC,154955.76,A,5418.196,N,01008.742,E,7.6,,050216,,E*5F
$GPRMC,154955.813,A,5418.196,N,01008.742,E,7.6,,050216,,E*64
$GPRMC,154956.76,A,5418.190,N,01008.734,E,7.5,,050216,,E*58
$GPRMC,154956.82,A,5418.190,N,01008.734,E,7.5,,050216,,E*53
$GPRMC,154957.761,A,5418.184,N,01008.726,E,7.5,,050216,,E*6E
$GPRMC,154957.803,A,5418.184,N,01008.726,E,7.5,,050216,,E*65
$GPRMC,154958.763,A,5418.178,N,01008.718,E,7.6,,050216,,E*6E
$GPRMC,154958.814,A,5418.178,N,01008.718,E,7.6,,050216,,E*61
$GPRMC,154959.757,A,5418.172,N,01008.710,E,7.6,,050216,,E*6A
$GPRMC,154959.821,A,5418.172,N,01008.710,E,7.6,,050216,,E*64
$GPRMC,155000.761,A,5418.166,N,01008.702,E,7.7,,050216,,E*6C
$GPRMC,155000.841,A,5418.166,N,01008.702,E,7.7,,050216,,E*61
$GPRMC,155001.763,A,5418.160,N,01008.695,E,7.6,,050216,,E*67
$GPRMC,155001.819,A,5418.160,N,01008.695,E,7.6,,050216,,E*65
$GPRMC,155002.77,A,5418.154,N,01008.688,E,7.5,,050216,,E*5E
$GPRMC,155002.819,A,5418.154,N,01008.688,E,7.5,,050216,,E*6E
$GPRMC,155003.774,A,5418.147,N,01008.680,E,7.9,,050216,,E*6D
$GPRMC,155003.817,A,5418.147,N,01008.680,E,7.9,,050216,,E*67
$GPRMC,155004.781,A,5418.141,N,01008.673,E,7.7,,050216,,E*64
$GPRMC,155004.836,A,5418.141,N,01008.673,E,7.7,,050216,,E*67
$GPRMC,155005.761,A,5418.134,N,01008.667,E,7.7,,050216,,E*6C
$GPRMC,155005.81,A,5418.134,N,01008.667,E,7.7,,050216,,E*55
$GPRMC,155006.764,A,5418.129,N,01008.661,E,6.4,,050216,,E*62
$GPRMC,155006.814,A,5418.129,N,01008.661,E,6.4,,050216,,E*6A
$GPRMC,155007.776,A,5418.123,N,01008.656,E,5.7,,050216,,E*6E
$GPRMC,155007.827,A,5418.123,N,01008.656,E,5.7,,050216,,E*65
$GPRMC,155008.778,A,5418.119,N,01008.653,E,4.7,,050216,,E*62
$GPRMC,155008.81,A,5418.119,N,01008.653,E,4.7,,050216,,E*53
$GPRMC,155009.766,A,5418.115,N,01008.650,E,3.9,,050216,,E*6A
$GPRMC,155009.82,A,5418.115,N,01008.650,E,3.9,,050216,,E*57
$GPRMC,155010.757,A,5418.112,N,01008.648,E,3.9,,050216,,E*6E
$GPRMC,155010.802,A,5418.112,N,01008.648,E,3.9,,050216,,E*61
$GPRMC,155011.789,A,5418.110,N,01008.646,E,2.3,,050216,,E*6B
$GPRMC,155011.826,A,5418.110,N,01008.646,E,2.3,,050216,,E*61
$GPRMC,155012.773,A,5418.109,N,01008.644,E,1.7,,050216,,E*60
$GPRMC,155012.832,A,5418.109,N,01008.644,E,1.7,,050216,,E*6A
$GPRMC,155013.771,A,5418.109,N,01008.643,E,0.4,,050216,,E*66
$GPRMC,155013.818,A,5418.109,N,01008.643,E,0.4,,050216,,E*66
$GPRMC,155014.771,A,5418.109,N,01008.643,E,0.4,,050216,,E*61
$GPRMC,155014.819,A,5418.109,N,01008.643,E,0.4,,050216,,E*60
$GPRMC,155015.777,A,5418.109,N,01008.643,E,0.4,,050216,,E*66
$GPRMC,155015.83,A,5418.109,N,01008.643,E,0.4,,050216,,E*5A
$GPRMC,155016.773,A,5418.109,N,01008.642,E,0.4,,050216,,E*60
$GPRMC,155016.819,A,5418.109,N,01008.642,E,0.4,,050216,,E*63
$GPRMC,155017.778,A,5418.109,N,01008.642,E,0.4,,050216,,E*6A
$GPRMC,155017.831,A,5418.109,N,01008.642,E,0.4,,050216,,E*68
$GPRMC,155018.771,A,5418.109,N,01008.643,E,0.4,,050216,,E*6D
$GPRMC,155018.825,A,5418.109,N,01008.643,E,0.4,,050216,,E*63
$GPRMC,155019.77,A,5418.109,N,01008.643,E,0.4,,050216,,E*5D
$GPRMC,155019.815,A,5418.109,N,01008.643,E,0.4,,050216,,E*61
$GPRMC,155020.769,A,5418.110,N,01008.643,E,0.4,,050216,,E*67
$GPRMC,155020.82,A,5418.110,N,01008.643,E,0.4,,050216,,E*55
$GPRMC,155021.77,A,5418.110,N,01008.643,E,0.4,,050216,,E*5E
$GPRMC,155021.828,A,5418.110,N,01008.643,E,0.4,,050216,,E*6C
$GPRMC,155022.768,A,5418.110,N,01008.643,E,0.4,,050216,,E*64
$GPRMC,155022.818,A,5418.110,N,01008.643,E,0.4,,050216,,E*6C
$GPRMC,155023.758,A,5418.110,N,01008.644,E,0.4,,050216,,E*61
$GPRMC,155023.806,A,5418.110,N,01008.644,E,0.4,,050216,,E*65
$GPRMC,155024.768,A,5418.109,N,01008.644,E,0.4,,050216,,E*6D
$GPRMC,155024.82,A,5418.109,N,01008.644,E,0.4,,050216,,E*5E
$GPRMC,155025.773,A,5418.109,N,01008.644,E,0.4,,050216,,E*66
$GPRMC,155025.82,A,5418.109,N,01008.644,E,0.4,,050216,,E*5F
$GPRMC,155026.778,A,5418.110,N,01008.644,E,0.4,,050216,,E*66
$GPRMC,155026.83,A,5418.110,N,01008.644,E,0.4,,050216,,E*55
$GPRMC,155027.772,A,5418.109,N,01008.644,E,0.4,,050216,,E*65
$GPRMC,155027.843,A,5418.109,N,01008.644,E,0.4,,050216,,E*68
$GPRMC,155028.774,A,5418.109,N,01008.644,E,0.4,,050216,,E*6C
$GPRMC,155028.835,A,5418.109,N,01008.644,E,0.4,,050216,,E*66
$GPRMC,155029.773,A,5418.109,N,01008.644,E,0.4,,050216,,E*6A
$GPRMC,155029.822,A,5418.109,N,01008.644,E,0.4,,050216,,E*61
$GPRMC,155030.772,A,5418.109,N,01008.644,E,0.4,,050216,,E*63
$GPRMC,155030.813,A,5418.109,N,01008.644,E,0.4,,050216,,E*6B
$GPRMC,155031.774,A,5418.109,N,01008.644,E,0.4,,050216,,E*64
$GPRMC,155031.846,A,5418.109,N,01008.644,E,0.4,,050216,,E*6A
$GPRMC,155032.777,A,5418.109,N,01008.644,E,0.4,,050216,,E*64
$GPRMC,155032.832,A,5418.109,N,01008.644,E,0.4,,050216,,E*6A
$GPRMC,155033.772,A,5418.109,N,01008.644,E,0.4,,050216,,E*60
$GPRMC,155033.812,A,5418.109,N,01008.644,E,0.4,,050216,,E*69
$GPRMC,155034.772,A,5418.109,N,01008.644,E,0.4,,050216,,E*67
$GPRMC,155034.834,A,5418.109,N,01008.644,E,0.4,,050216,,E*6A
$GPRMC,155035.775,A,5418.109,N,01008.644,E,0.4,,050216,,E*61
$GPRMC,155035.831,A,5418.109,N,01008.644,E,0.4,,050216,,E*6E
$GPRMC,155036.771,A,5418.109,N,01008.644,E,0.4,,050216,,E*66
$GPRMC,155036.813,A,5418.109,N,01008.644,E,0.4,,050216,,E*6D
$GPRMC,155037.771,A,5418.109,N,01008.644,E,0.4,,050216,,E*67
$GPRMC,155037.814,A,5418.109,N,01008.644,E,0.4,,050216,,E*6B
$GPRMC,155038.776,A,5418.109,N,01008.644,E,0.4,,050216,,E*6F
$GPRMC,155038.817,A,5418.109,N,01008.644,E,0.4,,050216,,E*67
$GPRMC,155039.777,A,5418.109,N,01008.644,E,0.4,,050216,,E*6F
$GPRMC,155039.807,A,5418.109,N,01008.644,E,0.4,,050216,,E*67
$GPRMC,155040.764,A,5418.109,N,01008.644,E,0.4,,050216,,E*63
$GPRMC,155040.823,A,5418.109,N,01008.644,E,0.4,,050216,,E*6F
$GPRMC,155041.769,A,5418.109,N,01008.644,E,0.4,,050216,,E*6F
$GPRMC,155041.816,A,5418.109,N,01008.644,E,0.4,,050216,,E*68
$GPRMC,155042.771,A,5418.109,N,01008.644,E,0.4,,050216,,E*65
$GPRMC,155042.827,A,5418.109,N,01008.644,E,0.4,,050216,,E*69
$GPRMC,155043.77,A,5418.109,N,01008.644,E,0.4,,050216,,E*55
$GPRMC,155043.856,A,5418.109,N,01008.644,E,0.4,,050216,,E*6E
$GPRMC,155044.772,A,5418.109,N,01008.644,E,0.4,,050216,,E*60
$GPRMC,155044.83,A,5418.109,N,01008.644,E,0.4,,050216,,E*59
$GPRMC,155045.772,A,5418.109,N,01008.644,E,0.4,,050216,,E*61
$GPRMC,155045.826,A,5418.109,N,01008.644,E,0.4,,050216,,E*6F
$GPRMC,155046.77,A,5418.109,N,01008.644,E,0.4,,050216,,E*50
$GPRMC,155046.822,A,5418.109,N,01008.644,E,0.4,,050216,,E*68
$GPRMC,155047.773,A,5418.109,N,01008.644,E,0.4,,050216,,E*62
$GPRMC,155047.846,A,5418.109,N,01008.644,E,0.4,,050216,,E*6B
$GPRMC,155048.768,A,5418.109,N,01008.644,E,0.4,,050216,,E*67
$GPRMC,155048.815,A,5418.109,N,01008.644,E,0.4,,050216,,E*62
$GPRMC,155049.766,A,5418.109,N,01008.644,E,0.4,,050216,,E*68
$GPRMC,155049.809,A,5418.109,N,01008.644,E,0.4,,050216,,E*6E
$GPRMC,155050.767,A,5418.109,N,01008.644,E,0.4,,050216,,E*61
$GPRMC,155050.823,A,5418.109,N,01008.644,E,0.4,,050216,,E*6E
$GPRMC,155051.765,A,5418.109,N,01008.644,E,0.4,,050216,,E*62
$GPRMC,155051.806,A,5418.109,N,01008.644,E,0.4,,050216,,E*68
$GPRMC,155052.828,A,5418.109,N,01008.644,E,0.4,,050216,,E*67
$GPRMC,155052.777,A,5418.109,N,01008.644,E,0.4,,050216,,E*62
$GPRMC,155053.779,A,5418.109,N,01008.644,E,0.4,,050216,,E*6D
$GPRMC,155053.828,A,5418.109,N,01008.644,E,0.4,,050216,,E*66
$GPRMC,155054.77,A,5418.109,N,01008.644,E,0.4,,050216,,E*53
$GPRMC,155054.784,A,5418.109,N,01008.644,E,0.4,,050216,,E*68
$GPRMC,155055.774,A,5418.109,N,01008.644,E,0.4,,050216,,E*66
$GPRMC,155055.828,A,5418.109,N,01008.644,E,0.4,,050216,,E*60
$GPRMC,155056.773,A,5418.109,N,01008.644,E,0.4,,050216,,E*62
$GPRMC,155056.828,A,5418.109,N,01008.644,E,0.4,,050216,,E*63
$GPRMC,155057.772,A,5418.109,N,01008.644,E,0.4,,050216,,E*62
$GPRMC,155057.841,A,5418.109,N,01008.644,E,0.4,,050216,,E*6D
$GPRMC,155058.768,A,5418.109,N,01008.644,E,0.4,,050216,,E*66
$GPRMC,155058.817,A,5418.109,N,01008.644,E,0.4,,050216,,E*61
$GPRMC,155059.78,A,5418.109,N,01008.644,E,0.4,,050216,,E*51
$GPRMC,155059.82,A,5418.109,N,01008.644,E,0.4,,050216,,E*54
$GPRMC,155100.771,A,5418.109,N,01008.644,E,0.4,,050216,,E*62
$GPRMC,155100.82,A,5418.109,N,01008.644,E,0.4,,050216,,E*59
$GPRMC,155101.773,A,5418.109,N,01008.644,E,0.4,,050216,,E*61
$GPRMC,155101.825,A,5418.109,N,01008.644,E,0.4,,050216,,E*6D
$GPRMC,155102.763,A,5418.109,N,01008.644,E,0.4,,050216,,E*63
$GPRMC,155102.815,A,5418.109,N,01008.644,E,0.4,,050216,,E*6D
$GPRMC,155103.756,A,5418.109,N,01008.644,E,0.4,,050216,,E*64
$GPRMC,155103.803,A,5418.109,N,01008.644,E,0.4,,050216,,E*6B
$GPRMC,155104.765,A,5418.109,N,01008.644,E,0.4,,050216,,E*63
$GPRMC,155104.817,A,5418.109,N,01008.644,E,0.4,,050216,,E*69
$GPRMC,155105.764,A,5418.109,N,01008.644,E,0.4,,050216,,E*63
$GPRMC,155105.813,A,5418.109,N,01008.644,E,0.4,,050216,,E*6C
$GPRMC,155106.761,A,5418.109,N,01008.644,E,0.4,,050216,,E*65
$GPRMC,155106.823,A,5418.109,N,01008.644,E,0.4,,050216,,E*6C
$GPRMC,155107.763,A,5418.109,N,01008.644,E,0.4,,050216,,E*66
$GPRMC,155107.801,A,5418.109,N,01008.644,E,0.4,,050216,,E*6D
$GPRMC,155108.769,A,5418.109,N,01008.644,E,0.4,,050216,,E*63
$GPRMC,155108.803,A,5418.109,N,01008.644,E,0.4,,050216,,E*60
$GPRMC,155109.772,A,5418.109,N,01008.644,E,0.4,,050216,,E*68
$GPRMC,155109.83,A,5418.109,N,01008.644,E,0.4,,050216,,E*51
$GPRMC,155110.788,A,5418.109,N,01008.642,E,1.2,,050216,,E*64
$GPRMC,155110.852,A,5418.109,N,01008.642,E,1.2,,050216,,E*6C
$GPRMC,155111.781,A,5418.108,N,01008.641,E,2.0,,050216,,E*6F
$GPRMC,155111.839,A,5418.108,N,01008.641,E,2.0,,050216,,E*63
$GPRMC,155112.842,A,5418.105,N,01008.638,E,2.9,,050216,,E*66
$GPRMC,155112.781,A,5418.105,N,01008.638,E,2.9,,050216,,E*66
$GPRMC,155113.779,A,5418.103,N,01008.635,E,2.8,,050216,,E*6A
$GPRMC,155113.833,A,5418.103,N,01008.635,E,2.8,,050216,,E*6B
$GPRMC,155114.779,A,5418.102,N,01008.631,E,2.8,,050216,,E*68
$GPRMC,155114.833,A,5418.102,N,01008.631,E,2.8,,050216,,E*69
$GPRMC,155115.782,A,5418.102,N,01008.626,E,3.2,,050216,,E*60
$GPRMC,155115.824,A,5418.102,N,01008.626,E,3.2,,050216,,E*63
$GPRMC,155116.783,A,5418.103,N,01008.619,E,4.1,,050216,,E*6B
$GPRMC,155116.828,A,5418.103,N,01008.619,E,4.1,,050216,,E*65
$GPRMC,155117.784,A,5418.105,N,01008.611,E,5.1,,050216,,E*62
